header: 
  seq: 0
  stamp: 
    secs: 36
    nsecs: 117000000
  frame_id: ''
name: [panda_joint_x, panda_joint_y, panda_joint_theta, schunk_pw70_joint_pan, schunk_pw70_joint_tilt,
  panda_joint_1, panda_joint_2, panda_joint_3, panda_joint_4, panda_joint_5, panda_joint_6,
  panda_joint_7]
position: [0.0, 0.0, 0.0, 0.0, 0.0, 0.2645513010515512, -0.2323526208045446, 0.06436943019352989, -0.41543174167957553, -0.2017379591698528, 0.6250993736125752, -1.754834237095523]
velocity: [0.0, 0.0, 0.0, 0.0, 0.0, -0.0005565248409522137, 3.0289203194895067e-06, 1.6543449483733834e-05, 1.8370581882991987e-05, 0.0005370409257065493, 1.2111667543090569e-05, -9.470030820830467e-05]
effort: []
---
header: 
  seq: 1
  stamp: 
    secs: 37
    nsecs: 116000000
  frame_id: ''
name: [panda_joint_x, panda_joint_y, panda_joint_theta, schunk_pw70_joint_pan, schunk_pw70_joint_tilt,
  panda_joint_1, panda_joint_2, panda_joint_3, panda_joint_4, panda_joint_5, panda_joint_6,
  panda_joint_7]
position: [0.0, 0.0, 0.0, 0.0, 0.0, 0.26399964408032073, -0.2323496533528731, 0.06438580691583687, -0.4154135862627994, -0.20120559209332162, 0.6251113501457877, -1.7549281102373029]
velocity: [0.0, 0.0, 0.0, 0.0, 0.0, -0.000551656971230521, 2.967451671494265e-06, 1.6376722306982977e-05, 1.8155416776109455e-05, 0.0005323670765311802, 1.197653321244637e-05, -9.387314177993876e-05]
effort: []
---
header: 
  seq: 2
  stamp: 
    secs: 38
    nsecs: 116000000
  frame_id: ''
name: [panda_joint_x, panda_joint_y, panda_joint_theta, schunk_pw70_joint_pan, schunk_pw70_joint_tilt,
  panda_joint_1, panda_joint_2, panda_joint_3, panda_joint_4, panda_joint_5, panda_joint_6,
  panda_joint_7]
position: [0.0, 0.0, 0.0, 0.0, 0.0, 0.2634528130464105, -0.23234674619359205, 0.06440201871816477, -0.4153956431435193, -0.20067785900836083, 0.6251231931982731, -1.75502116333414]
velocity: [0.0, 0.0, 0.0, 0.0, 0.0, -0.0005468310339102429, 2.907159281063873e-06, 1.6211802327905222e-05, 1.794311928012211e-05, 0.0005277330849607975, 1.1843052485508354e-05, -9.305309683696757e-05]
effort: []
---
header: 
  seq: 3
  stamp: 
    secs: 39
    nsecs: 116000000
  frame_id: ''
name: [panda_joint_x, panda_joint_y, panda_joint_theta, schunk_pw70_joint_pan, schunk_pw70_joint_tilt,
  panda_joint_1, panda_joint_2, panda_joint_3, panda_joint_4, panda_joint_5, panda_joint_6,
  panda_joint_7]
position: [0.0, 0.0, 0.0, 0.0, 0.0, 0.26291076636360194, -0.23234389817279932, 0.06441806738653234, -0.4153779094978711, -0.20015472037946014, 0.6251349044020945, -1.7551134034482838]
velocity: [0.0, 0.0, 0.0, 0.0, 0.0, -0.0005420466828085386, 2.848020792723773e-06, 1.6048668367574295e-05, 1.7733645648182743e-05, 0.0005231386289006869, 1.1711203821382027e-05, -9.224011414393848e-05]
effort: []
---
header: 
  seq: 4
  stamp: 
    secs: 40
    nsecs: 116000000
  frame_id: ''
name: [panda_joint_x, panda_joint_y, panda_joint_theta, schunk_pw70_joint_pan, schunk_pw70_joint_tilt,
  panda_joint_1, panda_joint_2, panda_joint_3, panda_joint_4, panda_joint_5, panda_joint_6,
  panda_joint_7]
position: [0.0, 0.0, 0.0, 0.0, 0.0, 0.2623734627893594, -0.23234110815829032, 0.06443395468610827, -0.41536038254457164, -0.1996361369910682, 0.6251464853678644, -1.7552048375832192]
velocity: [0.0, 0.0, 0.0, 0.0, 0.0, -0.000537303574242535, 2.790014509001774e-06, 1.5887299575922123e-05, 1.7526953299499573e-05, 0.0005185833883919374, 1.1580965769959863e-05, -9.143413493549463e-05]
effort: []
---
header: 
  seq: 5
  stamp: 
    secs: 41
    nsecs: 119000000
  frame_id: ''
name: [panda_joint_x, panda_joint_y, panda_joint_theta, schunk_pw70_joint_pan, schunk_pw70_joint_tilt,
  panda_joint_1, panda_joint_2, panda_joint_3, panda_joint_4, panda_joint_5, panda_joint_6,
  panda_joint_7]
position: [0.0, 0.0, 0.0, 0.0, 0.0, 0.26184086142236596, -0.23233837503922064, 0.06444968236144534, -0.4153430595443393, -0.1991220699453998, 0.6251579376850925, -1.7552954726841032]
velocity: [0.0, 0.0, 0.0, 0.0, 0.0, -0.0005326013669934668, 2.733119069666887e-06, 1.5727675337070263e-05, 1.7323000232328642e-05, 0.0005140670456683965, 1.1452317228057546e-05, -9.06351008839249e-05]
effort: []
---
header: 
  seq: 6
  stamp: 
    secs: 42
    nsecs: 116000000
  frame_id: ''
name: [panda_joint_x, panda_joint_y, panda_joint_theta, schunk_pw70_joint_pan, schunk_pw70_joint_tilt,
  panda_joint_1, panda_joint_2, panda_joint_3, panda_joint_4, panda_joint_5, panda_joint_6,
  panda_joint_7]
position: [0.0, 0.0, 0.0, 0.0, 0.0, 0.2613129217000658, -0.2323356977257375, 0.06446525213671918, -0.4153259377992545, -0.19861248066025317, 0.6251692629224955, -1.7553853156382038]
velocity: [0.0, 0.0, 0.0, 0.0, 0.0, -0.0005279397223001592, 2.6773134831287677e-06, 1.5569775273834936e-05, 1.7121745084853635e-05, 0.0005095892851466255, 1.1325237403004487e-05, -8.984295410057457e-05]
effort: []
---
header: 
  seq: 7
  stamp: 
    secs: 43
    nsecs: 117000000
  frame_id: ''
name: [panda_joint_x, panda_joint_y, panda_joint_theta, schunk_pw70_joint_pan, schunk_pw70_joint_tilt,
  panda_joint_1, panda_joint_2, panda_joint_3, panda_joint_4, panda_joint_5, panda_joint_6,
  panda_joint_7]
position: [0.0, 0.0, 0.0, 0.0, 0.0, 0.2607896033962019, -0.2323330751485145, 0.06448066571599853, -0.41530901465194386, -0.19810733086685306, 0.6251804626282194, -1.7554743732753475]
velocity: [0.0, 0.0, 0.0, 0.0, 0.0, -0.000523318303863941, 2.6225772229930316e-06, 1.5413579279347675e-05, 1.692314731060815e-05, 0.0005051497934001104, 1.1199705723859202e-05, -8.905763714364054e-05]
effort: []
---
header: 
  seq: 8
  stamp: 
    secs: 44
    nsecs: 116000000
  frame_id: ''
name: [panda_joint_x, panda_joint_y, panda_joint_theta, schunk_pw70_joint_pan, schunk_pw70_joint_tilt,
  panda_joint_1, panda_joint_2, panda_joint_3, panda_joint_4, panda_joint_5, panda_joint_6,
  panda_joint_7]
position: [0.0, 0.0, 0.0, 0.0, 0.0, 0.2602708666183739, -0.23233050625841692, 0.06449592478347596, -0.415292287484998, -0.19760658260767422, 0.6251915383301556, -1.75556265236835]
velocity: [0.0, 0.0, 0.0, 0.0, 0.0, -0.0005187367778280086, 2.56889009759446e-06, 1.5259067477430704e-05, 1.672716694582282e-05, 0.0005007482591788272, 1.1075701936297066e-05, -8.827909300253705e-05]
effort: []
---
header: 
  seq: 9
  stamp: 
    secs: 45
    nsecs: 116000000
  frame_id: ''
name: [panda_joint_x, panda_joint_y, panda_joint_theta, schunk_pw70_joint_pan, schunk_pw70_joint_tilt,
  panda_joint_1, panda_joint_2, panda_joint_3, panda_joint_4, panda_joint_5, panda_joint_6,
  panda_joint_7]
position: [0.0, 0.0, 0.0, 0.0, 0.0, 0.25975667180559653, -0.23232799002608373, 0.06451103100372058, -0.41527575372023967, -0.19711019823428697, 0.6252024915361837, -1.7556501596334566]
velocity: [0.0, 0.0, 0.0, 0.0, 0.0, -0.0005141948127773931, 2.5162323331946893e-06, 1.5106220244616231e-05, 1.6533764758368397e-05, 0.0004963843733872559, 1.095320602807907e-05, -8.750726510655311e-05]
effort: []
---
header: 
  seq: 10
  stamp: 
    secs: 46
    nsecs: 116000000
  frame_id: ''
name: [panda_joint_x, panda_joint_y, panda_joint_theta, schunk_pw70_joint_pan, schunk_pw70_joint_tilt,
  panda_joint_1, panda_joint_2, panda_joint_3, panda_joint_4, panda_joint_5, panda_joint_6,
  panda_joint_7]
position: [0.0, 0.0, 0.0, 0.0, 0.0, 0.25924697972586763, -0.23232552544154317, 0.06452598602192218, -0.41525941081805057, -0.1966181404052032, 0.6252133237344307, -1.755736901730776]
velocity: [0.0, 0.0, 0.0, 0.0, 0.0, -0.0005096920797289101, 2.4645845405630824e-06, 1.495501820160733e-05, 1.6342902189093483e-05, 0.0004920578290837594, 1.0832198247046294e-05, -8.674209731943241e-05]
effort: []
---
header: 
  seq: 11
  stamp: 
    secs: 47
    nsecs: 116000000
  frame_id: ''
name: [panda_joint_x, panda_joint_y, panda_joint_theta, schunk_pw70_joint_pan, schunk_pw70_joint_tilt,
  panda_joint_1, panda_joint_2, panda_joint_3, panda_joint_4, panda_joint_5, panda_joint_6,
  panda_joint_7]
position: [0.0, 0.0, 0.0, 0.0, 0.0, 0.2587417514737541, -0.2323231115139106, 0.0645407914641082, -0.41524325627684583, -0.19613037208371295, 0.6252240363935875, -1.7558228852647033]
velocity: [0.0, 0.0, 0.0, 0.0, 0.0, -0.0005052282521135177, 2.413927632554364e-06, 1.4805442186017817e-05, 1.615454120472235e-05, 0.00048776832149024986, 1.0712659156780387e-05, -8.598353392736751e-05]
effort: []
---
header: 
  seq: 12
  stamp: 
    secs: 48
    nsecs: 116000000
  frame_id: ''
name: [panda_joint_x, panda_joint_y, panda_joint_theta, schunk_pw70_joint_pan, schunk_pw70_joint_tilt,
  panda_joint_1, panda_joint_2, panda_joint_3, panda_joint_4, panda_joint_5, panda_joint_6,
  panda_joint_7]
position: [0.0, 0.0, 0.0, 0.0, 0.0, 0.2582409484679624, -0.23232074727086913, 0.06455544893742833, -0.41522728763215183, -0.19564685653577105, 0.625234630963039, -1.7559081167843655]
velocity: [0.0, 0.0, 0.0, 0.0, 0.0, -0.0005008030057917045, 2.364243041490716e-06, 1.4657473320137028e-05, 1.5968644693995278e-05, 0.00048351554794191044, 1.0594569451530254e-05, -8.52315196621204e-05]
effort: []
---
header: 
  seq: 13
  stamp: 
    secs: 49
    nsecs: 116000000
  frame_id: ''
name: [panda_joint_x, panda_joint_y, panda_joint_theta, schunk_pw70_joint_pan, schunk_pw70_joint_tilt,
  panda_joint_1, panda_joint_2, panda_joint_3, panda_joint_4, panda_joint_5, panda_joint_6,
  panda_joint_7]
position: [0.0, 0.0, 0.0, 0.0, 0.0, 0.2577445324489598, -0.232318431758545, 0.06456996003031498, -0.41521150245640426, -0.19516755732781335, 0.6252451088733103, -1.7559926027840238]
velocity: [0.0, 0.0, 0.0, 0.0, 0.0, -0.0004964160190026511, 2.31551232412004e-06, 1.451109288664881e-05, 1.578517574754874e-05, 0.00047929920795770074, 1.0477910271273173e-05, -8.448599965823103e-05]
effort: []
---
header: 
  seq: 14
  stamp: 
    secs: 50
    nsecs: 116000000
  frame_id: ''
name: [panda_joint_x, panda_joint_y, panda_joint_theta, schunk_pw70_joint_pan, schunk_pw70_joint_tilt,
  panda_joint_1, panda_joint_2, panda_joint_3, panda_joint_4, panda_joint_5, panda_joint_6,
  panda_joint_7]
position: [0.0, 0.0, 0.0, 0.0, 0.0, 0.25725246547655767, -0.2323161640409394, 0.06458432631278171, -0.41519589835793225, -0.1946924383246685, 0.6252554715361369, -1.7560763497035188]
velocity: [0.0, 0.0, 0.0, 0.0, 0.0, -0.0004920669724021015, 2.2677176055995157e-06, 1.4366282466732326e-05, 1.5604098472031956e-05, 0.0004751190031448349, 1.036266282661028e-05, -8.374691949507971e-05]
effort: []
---
header: 
  seq: 15
  stamp: 
    secs: 51
    nsecs: 116000000
  frame_id: ''
name: [panda_joint_x, panda_joint_y, panda_joint_theta, schunk_pw70_joint_pan, schunk_pw70_joint_tilt,
  panda_joint_1, panda_joint_2, panda_joint_3, panda_joint_4, panda_joint_5, panda_joint_6,
  panda_joint_7]
position: [0.0, 0.0, 0.0, 0.0, 0.0, 0.2567647099275396, -0.23231394319969306, 0.06459854933661567, -0.41518047298055355, -0.19422146368741058, 0.6252657203448051, -1.7561593639286832]
velocity: [0.0, 0.0, 0.0, 0.0, 0.0, -0.0004877555490181022, 2.2208412463367344e-06, 1.4223023833960246e-05, 1.542537737869616e-05, 0.0004709746372579369, 1.0248808668139493e-05, -8.301422516436734e-05]
effort: []
---
header: 
  seq: 16
  stamp: 
    secs: 52
    nsecs: 116000000
  frame_id: ''
name: [panda_joint_x, panda_joint_y, panda_joint_theta, schunk_pw70_joint_pan, schunk_pw70_joint_tilt,
  panda_joint_1, panda_joint_2, panda_joint_3, panda_joint_4, panda_joint_5, panda_joint_6,
  panda_joint_7]
position: [0.0, 0.0, 0.0, 0.0, 0.0, 0.25628122849328827, -0.23231176833376893, 0.0646126306355986, -0.41516522400301337, -0.19375459787123808, 0.6252758566744091, -1.7562416517917547]
velocity: [0.0, 0.0, 0.0, 0.0, 0.0, -0.00048348143425128273, 2.1748659241216646e-06, 1.4081298982933334e-05, 1.5248977540160211e-05, 0.0004668658161725005, 1.0136329604020315e-05, -8.228786307151684e-05]
effort: []
---
header: 
  seq: 17
  stamp: 
    secs: 53
    nsecs: 116000000
  frame_id: ''
name: [panda_joint_x, panda_joint_y, panda_joint_theta, schunk_pw70_joint_pan, schunk_pw70_joint_tilt,
  panda_joint_1, panda_joint_2, panda_joint_3, panda_joint_4, panda_joint_5, panda_joint_6,
  panda_joint_7]
position: [0.0, 0.0, 0.0, 0.0, 0.0, 0.2558019841774204, -0.23230963855909195, 0.06462657172573659, -0.41515014913834924, -0.1932918056233688, 0.6252858818820718, -1.7563232195718002]
velocity: [0.0, 0.0, 0.0, 0.0, 0.0, -0.0004792443158678875, 2.1297746769734945e-06, 1.3941090137985288e-05, 1.5074864664106645e-05, 0.00046279224786926744, 1.0025207662661015e-05, -8.15677800453793e-05]
effort: []
---
header: 
  seq: 18
  stamp: 
    secs: 54
    nsecs: 121000000
  frame_id: ''
name: [panda_joint_x, panda_joint_y, panda_joint_theta, schunk_pw70_joint_pan, schunk_pw70_joint_tilt,
  panda_joint_1, panda_joint_2, panda_joint_3, panda_joint_4, panda_joint_5, panda_joint_6,
  panda_joint_7]
position: [0.0, 0.0, 0.0, 0.0, 0.0, 0.2553269402934301, -0.23230755300820197, 0.06464037410548709, -0.4151352461332738, -0.1928330519809405, 0.6252957973071617, -1.756404073495128]
velocity: [0.0, 0.0, 0.0, 0.0, 0.0, -0.000475043883990257, 2.0855508899913636e-06, 1.3802379750504754e-05, 1.4903005075456856e-05, 0.00045875364242831676, 9.915425089934486e-06, -8.085392332781028e-05]
effort: []
---
header: 
  seq: 19
  stamp: 
    secs: 55
    nsecs: 117000000
  frame_id: ''
name: [panda_joint_x, panda_joint_y, panda_joint_theta, schunk_pw70_joint_pan, schunk_pw70_joint_tilt,
  panda_joint_1, panda_joint_2, panda_joint_3, panda_joint_4, panda_joint_5, panda_joint_6,
  panda_joint_7]
position: [0.0, 0.0, 0.0, 0.0, 0.0, 0.25485606046235304, -0.23230551082998996, 0.06465403925595849, -0.41512051276771433, -0.19237830226890387, 0.6253056042715776, -1.7564842197356971]
velocity: [0.0, 0.0, 0.0, 0.0, 0.0, -0.0004708798310770603, 2.0421782119980826e-06, 1.3665150471393479e-05, 1.4733365559453045e-05, 0.0004547497120366382, 9.806964415845294e-06, -8.014624056907618e-05]
effort: []
---
header: 
  seq: 20
  stamp: 
    secs: 56
    nsecs: 116000000
  frame_id: ''
name: [panda_joint_x, panda_joint_y, panda_joint_theta, schunk_pw70_joint_pan, schunk_pw70_joint_tilt,
  panda_joint_1, panda_joint_2, panda_joint_3, panda_joint_4, panda_joint_5, panda_joint_6,
  panda_joint_7]
position: [0.0, 0.0, 0.0, 0.0, 0.0, 0.2543893086104313, -0.23230351118935458, 0.0646675686411338, -0.4151059468541996, -0.19192752209794073, 0.6253153040799514, -1.7565636644155274]
velocity: [0.0, 0.0, 0.0, 0.0, 0.0, -0.00046675185192173477, 1.9996406353904284e-06, 1.3529385175305402e-05, 1.4565913514716499e-05, 0.0004507801709631528, 9.699808373880948e-06, -7.94446798301303e-05]
effort: []
---
header: 
  seq: 21
  stamp: 
    secs: 57
    nsecs: 116000000
  frame_id: ''
name: [panda_joint_x, panda_joint_y, panda_joint_theta, schunk_pw70_joint_pan, schunk_pw70_joint_tilt,
  panda_joint_1, panda_joint_2, panda_joint_3, panda_joint_4, panda_joint_5, panda_joint_6,
  panda_joint_7]
position: [0.0, 0.0, 0.0, 0.0, 0.0, 0.253926648966787, -0.2323015532668504, 0.06468096370809766, -0.41509154623723443, -0.19148067736239308, 0.6253248980198425, -1.7566424136051133]
velocity: [0.0, 0.0, 0.0, 0.0, 0.0, -0.00046265964364427436, 1.9579225041859485e-06, 1.3395066963870477e-05, 1.440061696518541e-05, 0.00044684473554766564, 9.593939891078015e-06, -7.87491895859705e-05]
effort: []
---
header: 
  seq: 22
  stamp: 
    secs: 58
    nsecs: 116000000
  frame_id: ''
name: [panda_joint_x, panda_joint_y, panda_joint_theta, schunk_pw70_joint_pan, schunk_pw70_joint_tilt,
  panda_joint_1, panda_joint_2, panda_joint_3, panda_joint_4, panda_joint_5, panda_joint_6,
  panda_joint_7]
position: [0.0, 0.0, 0.0, 0.0, 0.0, 0.2534680460611319, -0.2322996362585554, 0.0646942258871925, -0.4150773087930727, -0.19103773423815693, 0.6253343873621015, -1.756720473323807]
velocity: [0.0, 0.0, 0.0, 0.0, 0.0, -0.0004586029056551384, 1.917008294998541e-06, 1.326217909483407e-05, 1.4237444161742273e-05, 0.0004429431242361503, 9.489342259019752e-06, -7.805971869387945e-05]
effort: []
---
header: 
  seq: 23
  stamp: 
    secs: 59
    nsecs: 116000000
  frame_id: ''
name: [panda_joint_x, panda_joint_y, panda_joint_theta, schunk_pw70_joint_pan, schunk_pw70_joint_tilt,
  panda_joint_1, panda_joint_2, panda_joint_3, panda_joint_4, panda_joint_5, panda_joint_6,
  panda_joint_7]
position: [0.0, 0.0, 0.0, 0.0, 0.0, 0.25301346472145547, -0.2322977593756426, 0.06470735659226494, -0.41506323242895027, -0.19059865918064575, 0.625343773360986, -1.7567978495402372]
velocity: [0.0, 0.0, 0.0, 0.0, 0.0, -0.00045458133967640237, 1.8768829128228072e-06, 1.3130705072446926e-05, 1.4076364122431009e-05, 0.0004390750575111847, 9.385998884608172e-06, -7.737621643016583e-05]
effort: []
---
header: 
  seq: 24
  stamp: 
    secs: 60
    nsecs: 116000000
  frame_id: ''
name: [panda_joint_x, panda_joint_y, panda_joint_theta, schunk_pw70_joint_pan, schunk_pw70_joint_tilt,
  panda_joint_1, panda_joint_2, panda_joint_3, panda_joint_4, panda_joint_5, panda_joint_6,
  panda_joint_7]
position: [0.0, 0.0, 0.0, 0.0, 0.0, 0.25256287007173267, -0.23229592184405312, 0.06472035722088527, -0.41504931508249826, -0.19016341892274355, 0.6253530572543475, -1.7568745481727122]
velocity: [0.0, 0.0, 0.0, 0.0, 0.0, -0.00045059464972280677, 1.8375315894826221e-06, 1.3000628620333551e-05, 1.3917346452029255e-05, 0.0004352402579021994, 9.283893361539456e-06, -7.669863247491854e-05]
effort: []
---
header: 
  seq: 25
  stamp: 
    secs: 61
    nsecs: 116000000
  frame_id: ''
name: [panda_joint_x, panda_joint_y, panda_joint_theta, schunk_pw70_joint_pan, schunk_pw70_joint_tilt,
  panda_joint_1, panda_joint_2, panda_joint_3, panda_joint_4, panda_joint_5, panda_joint_6,
  panda_joint_7]
position: [0.0, 0.0, 0.0, 0.0, 0.0, 0.25211622752966306, -0.23229412290433313, 0.06473322915450709, -0.41503555472146086, -0.1897319804727324, 0.625362240263952, -1.7569505750896028]
velocity: [0.0, 0.0, 0.0, 0.0, 0.0, -0.0004466425420696067, 1.798939719986969e-06, 1.2871933621822143e-05, 1.3760361037421195e-05, 0.0004314384500111584, 9.18300960448974e-06, -7.602691689060788e-05]
effort: []
---
header: 
  seq: 26
  stamp: 
    secs: 62
    nsecs: 123000000
  frame_id: ''
name: [panda_joint_x, panda_joint_y, panda_joint_theta, schunk_pw70_joint_pan, schunk_pw70_joint_tilt,
  panda_joint_1, panda_joint_2, panda_joint_3, panda_joint_4, panda_joint_5, panda_joint_6,
  panda_joint_7]
position: [0.0, 0.0, 0.0, 0.0, 0.0, 0.2516735028044091, -0.23229236181137453, 0.06474597375866384, -0.4150219493432297, -0.18930431111225277, 0.6253713235957069, -1.757025936109733]
velocity: [0.0, 0.0, 0.0, 0.0, 0.0, -0.0004427247252539879, 1.7610929586020344e-06, 1.2744604156745486e-05, 1.3605378231128808e-05, 0.00042766936047962417, 9.083331754833866e-06, -7.53610201300838e-05]
effort: []
---
header: 
  seq: 27
  stamp: 
    secs: 63
    nsecs: 116000000
  frame_id: ''
name: [panda_joint_x, panda_joint_y, panda_joint_theta, schunk_pw70_joint_pan, schunk_pw70_joint_tilt,
  panda_joint_1, panda_joint_2, panda_joint_3, panda_joint_4, panda_joint_5, panda_joint_6,
  panda_joint_7]
position: [0.0, 0.0, 0.0, 0.0, 0.0, 0.2512346618943283, -0.23229063783398682, 0.06475859238321162, -0.41500849697407544, -0.1888803783943055, 0.6253803084397493, -1.7571006370027922]
velocity: [0.0, 0.0, 0.0, 0.0, 0.0, -0.0004388409100807951, 1.7239773877180482e-06, 1.2618624547779006e-05, 1.3452369154265047e-05, 0.0004239327179472866, 8.984844042418224e-06, -7.470089305920237e-05]
effort: []
---
header: 
  seq: 28
  stamp: 
    secs: 64
    nsecs: 116000000
  frame_id: ''
name: [panda_joint_x, panda_joint_y, panda_joint_theta, schunk_pw70_joint_pan, schunk_pw70_joint_tilt,
  panda_joint_1, panda_joint_2, panda_joint_3, panda_joint_4, panda_joint_5, panda_joint_6,
  panda_joint_7]
position: [0.0, 0.0, 0.0, 0.0, 0.0, 0.2507996710847473, -0.23228895025475974, 0.06477108636248337, -0.41499519566890497, -0.1884601501412058, 0.6253891959707616, -1.7571746834897093]
velocity: [0.0, 0.0, 0.0, 0.0, 0.0, -0.0004349908095809894, 1.687579227070893e-06, 1.2493979271749855e-05, 1.3301305170458807e-05, 0.00042022825309970865, 8.887531012206133e-06, -7.404648691705612e-05]
effort: []
---
header: 
  seq: 29
  stamp: 
    secs: 65
    nsecs: 116000000
  frame_id: ''
name: [panda_joint_x, panda_joint_y, panda_joint_theta, schunk_pw70_joint_pan, schunk_pw70_joint_tilt,
  panda_joint_1, panda_joint_2, panda_joint_3, panda_joint_4, panda_joint_5, panda_joint_6,
  panda_joint_7]
position: [0.0, 0.0, 0.0, 0.0, 0.0, 0.2503684969457327, -0.2322872983697858, 0.06478345701548618, -0.4149820435107626, -0.18804359444257668, 0.6253979873481644, -1.7572480812430389]
velocity: [0.0, 0.0, 0.0, 0.0, 0.0, -0.0004311741390146387, 1.6518849739548986e-06, 1.2370653002811839e-05, 1.3152158142366185e-05, 0.0004165556986291043, 8.79137740279584e-06, -7.339775332958925e-05]
effort: []
---
header: 
  seq: 30
  stamp: 
    secs: 66
    nsecs: 119000000
  frame_id: ''
name: [panda_joint_x, panda_joint_y, panda_joint_theta, schunk_pw70_joint_pan, schunk_pw70_joint_tilt,
  panda_joint_1, panda_joint_2, panda_joint_3, panda_joint_4, panda_joint_5, panda_joint_6,
  panda_joint_7]
position: [0.0, 0.0, 0.0, 0.0, 0.0, 0.24994110632987862, -0.23228568148841916, 0.06479570564608303, -0.4149690386104002, -0.18763067965334396, 0.6254066837163377, -1.7573208358873453]
velocity: [0.0, 0.0, 0.0, 0.0, 0.0, -0.00042739061585410256, 1.6168813666254096e-06, 1.22486305968489e-05, 1.3004900362451805e-05, 0.00041291478923271923, 8.69636817328033e-06, -7.275464430647683e-05]
effort: []
---
header: 
  seq: 31
  stamp: 
    secs: 67
    nsecs: 117000000
  frame_id: ''
name: [panda_joint_x, panda_joint_y, panda_joint_theta, schunk_pw70_joint_pan, schunk_pw70_joint_tilt,
  panda_joint_1, panda_joint_2, panda_joint_3, panda_joint_4, panda_joint_5, panda_joint_6,
  panda_joint_7]
position: [0.0, 0.0, 0.0, 0.0, 0.0, 0.24951746637009067, -0.23228409893291652, 0.06480783354321552, -0.4149561791056259, -0.18722137439176748, 0.6254152862047323, -1.7573929529995975]
velocity: [0.0, 0.0, 0.0, 0.0, 0.0, -0.0004236399597879359, 1.582555502631784e-06, 1.2127897132489243e-05, 1.2859504774325007e-05, 0.000409305261576474, 8.602488394582787e-06, -7.211711225228273e-05]
effort: []
---
header: 
  seq: 32
  stamp: 
    secs: 68
    nsecs: 116000000
  frame_id: ''
name: [panda_joint_x, panda_joint_y, panda_joint_theta, schunk_pw70_joint_pan, schunk_pw70_joint_tilt,
  panda_joint_1, panda_joint_2, panda_joint_3, panda_joint_4, panda_joint_5, panda_joint_6,
  panda_joint_7]
position: [0.0, 0.0, 0.0, 0.0, 0.0, 0.24909754447741997, -0.23228255003840761, 0.06481984198101924, -0.41494346316125874, -0.18681564753741542, 0.6254237959282496, -1.7574644381095228]
velocity: [0.0, 0.0, 0.0, 0.0, 0.0, -0.0004199218926706972, 1.548894508898745e-06, 1.2008437803719109e-05, 1.2715944367141657e-05, 0.00040572685435206644, 8.509723517261078e-06, -7.148510992530177e-05]
effort: []
---
header: 
  seq: 33
  stamp: 
    secs: 69
    nsecs: 116000000
  frame_id: ''
name: [panda_joint_x, panda_joint_y, panda_joint_theta, schunk_pw70_joint_pan, schunk_pw70_joint_tilt,
  panda_joint_1, panda_joint_2, panda_joint_3, panda_joint_4, panda_joint_5, panda_joint_6,
  panda_joint_7]
position: [0.0, 0.0, 0.0, 0.0, 0.0, 0.24868130833885435, -0.23228103415237406, 0.0648317322190926, -0.41493088896818087, -0.1864134682292472, 0.6254322139872082, -1.7575352967000135]
velocity: [0.0, 0.0, 0.0, 0.0, 0.0, -0.0004162361385656261, 1.515886033572232e-06, 1.1890238073348732e-05, 1.2574193077870451e-05, 0.0004021793081682033, 8.418058958563378e-06, -7.085859049076611e-05]
effort: []
---
header: 
  seq: 34
  stamp: 
    secs: 70
    nsecs: 116000000
  frame_id: ''
name: [panda_joint_x, panda_joint_y, panda_joint_theta, schunk_pw70_joint_pan, schunk_pw70_joint_tilt,
  panda_joint_1, panda_joint_2, panda_joint_3, panda_joint_4, panda_joint_5, panda_joint_6,
  panda_joint_7]
position: [0.0, 0.0, 0.0, 0.0, 0.0, 0.24826872591518467, -0.23227955063470918, 0.06484350550258434, -0.41491845474345374, -0.1860148058635932, 0.6254405414677849, -1.7576055342074712]
velocity: [0.0, 0.0, 0.0, 0.0, 0.0, -0.00041258242366968743, 1.4835176648841946e-06, 1.1773283491746214e-05, 1.2434224727123571e-05, 0.0003986623656540112, 8.327480576738466e-06, -7.023750745763913e-05]
effort: []
---
header: 
  seq: 35
  stamp: 
    secs: 71
    nsecs: 116000000
  frame_id: ''
name: [panda_joint_x, panda_joint_y, panda_joint_theta, schunk_pw70_joint_pan, schunk_pw70_joint_tilt,
  panda_joint_1, panda_joint_2, panda_joint_3, panda_joint_4, panda_joint_5, panda_joint_6,
  panda_joint_7]
position: [0.0, 0.0, 0.0, 0.0, 0.0, 0.24785976543882565, -0.2322780988572414, 0.06485516306244696, -0.41490615872944975, -0.1856196300922504, 0.6254487794420043, -1.7576751560222033]
velocity: [0.0, 0.0, 0.0, 0.0, 0.0, -0.0004089604763590133, 1.4517774677804376e-06, 1.1657559862608014e-05, 1.2296014003969126e-05, 0.0003951757713428016, 8.237974219346771e-06, -6.962181473194437e-05]
effort: []
---
header: 
  seq: 36
  stamp: 
    secs: 72
    nsecs: 117000000
  frame_id: ''
name: [panda_joint_x, panda_joint_y, panda_joint_theta, schunk_pw70_joint_pan, schunk_pw70_joint_tilt,
  panda_joint_1, panda_joint_2, panda_joint_3, panda_joint_4, panda_joint_5, panda_joint_6,
  panda_joint_7]
position: [0.0, 0.0, 0.0, 0.0, 0.0, 0.2474543954116919, -0.23227667820366116, 0.06486670611556306, -0.4148939991937244, -0.1852279108205091, 0.6254569289680576, -1.7577441674887748]
velocity: [0.0, 0.0, 0.0, 0.0, 0.0, -0.0004053700271337438, 1.4206535802355996e-06, 1.1543053116102407e-05, 1.2159535725379782e-05, 0.00039171927174129907, 8.149526053281686e-06, -6.901146657153798e-05]
effort: []
---
header: 
  seq: 37
  stamp: 
    secs: 73
    nsecs: 116000000
  frame_id: ''
name: [panda_joint_x, panda_joint_y, panda_joint_theta, schunk_pw70_joint_pan, schunk_pw70_joint_tilt,
  panda_joint_1, panda_joint_2, panda_joint_3, panda_joint_4, panda_joint_5, panda_joint_6,
  panda_joint_7]
position: [0.0, 0.0, 0.0, 0.0, 0.0, 0.24705258460306093, -0.23227528806921577, 0.06487813586494441, -0.41488197442845987, -0.18483961820523748, 0.6254649910904215, -1.7578125739063863]
velocity: [0.0, 0.0, 0.0, 0.0, 0.0, -0.00040181080863096503, 1.390134445396672e-06, 1.1429749381356358e-05, 1.2024765264497494e-05, 0.0003882926152716219, 8.06212236393613e-06, -6.840641761157889e-05]
effort: []
---
header: 
  seq: 38
  stamp: 
    secs: 74
    nsecs: 116000000
  frame_id: ''
name: [panda_joint_x, panda_joint_y, panda_joint_theta, schunk_pw70_joint_pan, schunk_pw70_joint_tilt,
  panda_joint_1, panda_joint_2, panda_joint_3, panda_joint_4, panda_joint_5, panda_joint_6,
  panda_joint_7]
position: [0.0, 0.0, 0.0, 0.0, 0.0, 0.246654302047467, -0.23227392786056814, 0.06488945349987782, -0.4148700827502118, -0.18445472265294388, 0.6254729668401096, -1.7578803805292287]
velocity: [0.0, 0.0, 0.0, 0.0, 0.0, -0.00039828255559394045, 1.3602086476436466e-06, 1.1317634933404614e-05, 1.1891678248063048e-05, 0.0003848955522935823, 7.975749688045979e-06, -6.7806622842386e-05]
effort: []
---
header: 
  seq: 39
  stamp: 
    secs: 75
    nsecs: 116000000
  frame_id: ''
name: [panda_joint_x, panda_joint_y, panda_joint_theta, schunk_pw70_joint_pan, schunk_pw70_joint_tilt,
  panda_joint_1, panda_joint_2, panda_joint_3, panda_joint_4, panda_joint_5, panda_joint_6,
  panda_joint_7]
position: [0.0, 0.0, 0.0, 0.0, 0.0, 0.2462595170425922, -0.23227259699552255, 0.06490066019611233, -0.41485832249940807, -0.18407319481787732, 0.6254808572348042, -1.7579475925668515]
velocity: [0.0, 0.0, 0.0, 0.0, 0.0, -0.0003947850048747974, 1.3308650455787914e-06, 1.1206696234513692e-05, 1.1760250803741722e-05, 0.00038152783506655214, 7.890394694605845e-06, -6.721203762283405e-05]
effort: []
---
header: 
  seq: 40
  stamp: 
    secs: 76
    nsecs: 116000000
  frame_id: ''
name: [panda_joint_x, panda_joint_y, panda_joint_theta, schunk_pw70_joint_pan, schunk_pw70_joint_tilt,
  panda_joint_1, panda_joint_2, panda_joint_3, panda_joint_4, panda_joint_5, panda_joint_6,
  panda_joint_7]
position: [0.0, 0.0, 0.0, 0.0, 0.0, 0.24586819914717156, -0.23227129490276935, 0.06491175711603954, -0.4148466920398826, -0.1836950056001337, 0.6254886632789994, -1.7580142151845246]
velocity: [0.0, 0.0, 0.0, 0.0, 0.0, -0.00039131789542061837, 1.3020927532119544e-06, 1.1096919927211425e-05, 1.1630459525450678e-05, 0.00037818921774361835, 7.80604419529969e-06, -6.662261767315569e-05]
effort: []
---
header: 
  seq: 41
  stamp: 
    secs: 77
    nsecs: 117000000
  frame_id: ''
name: [panda_joint_x, panda_joint_y, panda_joint_theta, schunk_pw70_joint_pan, schunk_pw70_joint_tilt,
  panda_joint_1, panda_joint_2, panda_joint_3, panda_joint_4, panda_joint_5, panda_joint_6,
  panda_joint_7]
position: [0.0, 0.0, 0.0, 0.0, 0.0, 0.24548031817893706, -0.23227002102185987, 0.0649227454087999, -0.4148351897588357, -0.18332012614372975, 0.6254963859643335, -1.7580802535035807]
velocity: [0.0, 0.0, 0.0, 0.0, 0.0, -0.00038788096823449665, 1.2738809094771128e-06, 1.0988292760362897e-05, 1.150228104688021e-05, 0.00037487945640394, 7.7226853341528e-06, -6.603831905606985e-05]
effort: []
---
header: 
  seq: 42
  stamp: 
    secs: 78
    nsecs: 116000000
  frame_id: ''
name: [panda_joint_x, panda_joint_y, panda_joint_theta, schunk_pw70_joint_pan, schunk_pw70_joint_tilt,
  panda_joint_1, panda_joint_2, panda_joint_3, panda_joint_4, panda_joint_5, panda_joint_6,
  panda_joint_7]
position: [0.0, 0.0, 0.0, 0.0, 0.0, 0.24509584421253355, -0.23226877480282562, 0.06493362621050304, -0.4148238140661306, -0.18294852783475868, 0.6255040262696109, -1.7581457126017845]
velocity: [0.0, 0.0, 0.0, 0.0, 0.0, -0.0003844739664035217, 1.2462190342479323e-06, 1.088080170313518e-05, 1.1375692705121003e-05, 0.0003715983089710683, 7.640305277379435e-06, -6.545909820383547e-05]
effort: []
---
header: 
  seq: 43
  stamp: 
    secs: 79
    nsecs: 116000000
  frame_id: ''
name: [panda_joint_x, panda_joint_y, panda_joint_theta, schunk_pw70_joint_pan, schunk_pw70_joint_tilt,
  panda_joint_1, panda_joint_2, panda_joint_3, panda_joint_4, panda_joint_5, panda_joint_6,
  panda_joint_7]
position: [0.0, 0.0, 0.0, 0.0, 0.0, 0.2447147475774658, -0.2322675557059678, 0.06494440064439033, -0.41481256339391237, -0.18258018229952144, 0.6255115851609698, -1.7582105975136895]
velocity: [0.0, 0.0, 0.0, 0.0, 0.0, -0.0003810966350677539, 1.2190968578181799e-06, 1.0774433887287344e-05, 1.1250672218239124e-05, 0.00036834553523722456, 7.558891358897434e-06, -6.488491190494829e-05]
effort: []
---
header: 
  seq: 44
  stamp: 
    secs: 80
    nsecs: 116000000
  frame_id: ''
name: [panda_joint_x, panda_joint_y, panda_joint_theta, schunk_pw70_joint_pan, schunk_pw70_joint_tilt,
  panda_joint_1, panda_joint_2, panda_joint_3, panda_joint_4, panda_joint_5, panda_joint_6,
  panda_joint_7]
position: [0.0, 0.0, 0.0, 0.0, 0.0, 0.2443369988560904, -0.232266363201917, 0.06495506982091155, -0.4148014361967183, -0.18221506140261637, 0.6255190635922645, -1.7582749132309556]
velocity: [0.0, 0.0, 0.0, 0.0, 0.0, -0.00037774872137542144, 1.1925040508185742e-06, 1.0669176521220532e-05, 1.112719719408312e-05, 0.00036512089690508154, 7.478431294633388e-06, -6.431571726610016e-05]
effort: []
---
header: 
  seq: 45
  stamp: 
    secs: 81
    nsecs: 116000000
  frame_id: ''
name: [panda_joint_x, panda_joint_y, panda_joint_theta, schunk_pw70_joint_pan, schunk_pw70_joint_tilt,
  panda_joint_1, panda_joint_2, panda_joint_3, panda_joint_4, panda_joint_5, panda_joint_6,
  panda_joint_7]
position: [0.0, 0.0, 0.0, 0.0, 0.0, 0.2439625688815532, -0.23226519677111593, 0.06496563483798574, -0.4147904309505253, -0.18185313724515687, 0.6255264625049607, -1.7583386647027361]
velocity: [0.0, 0.0, 0.0, 0.0, 0.0, -0.0003744299745371738, 1.1664308010616824e-06, 1.0565017074190573e-05, 1.1005246192945293e-05, 0.00036192415745948996, 7.398912696145713e-06, -6.375147178051454e-05]
effort: []
---
header: 
  seq: 46
  stamp: 
    secs: 82
    nsecs: 116000000
  frame_id: ''
name: [panda_joint_x, panda_joint_y, panda_joint_theta, schunk_pw70_joint_pan, schunk_pw70_joint_tilt,
  panda_joint_1, panda_joint_2, panda_joint_3, panda_joint_4, panda_joint_5, panda_joint_6,
  panda_joint_7]
position: [0.0, 0.0, 0.0, 0.0, 0.0, 0.2435914287357961, -0.2322640559038017, 0.0649760967811005, -0.4147795461527199, -0.18149438216289815, 0.625533782828446, -1.7584018568360018]
velocity: [0.0, 0.0, 0.0, 0.0, 0.0, -0.00037114014575711693, 1.1408673142413665e-06, 1.0461943114752476e-05, 1.088479780541832e-05, 0.0003587550822587278, 7.320323485307485e-06, -6.319213326566046e-05]
effort: []
---
header: 
  seq: 47
  stamp: 
    secs: 83
    nsecs: 116000000
  frame_id: ''
name: [panda_joint_x, panda_joint_y, panda_joint_theta, schunk_pw70_joint_pan, schunk_pw70_joint_tilt,
  panda_joint_1, panda_joint_2, panda_joint_3, panda_joint_4, panda_joint_5, panda_joint_6,
  panda_joint_7]
position: [0.0, 0.0, 0.0, 0.0, 0.0, 0.2432235497475656, -0.23226294009988832, 0.06498645672344297, -0.41476878032187975, -0.18113876872439713, 0.625541025480248, -1.7584644944958756]
velocity: [0.0, 0.0, 0.0, 0.0, 0.0, -0.0003678789882304971, 1.1158039133763963e-06, 1.0359942342475867e-05, 1.0765830840160628e-05, 0.0003556134385010208, 7.2426518020285115e-06, -6.263765987390185e-05]
effort: []
---
header: 
  seq: 48
  stamp: 
    secs: 84
    nsecs: 116000000
  frame_id: ''
name: [panda_joint_x, panda_joint_y, panda_joint_theta, schunk_pw70_joint_pan, schunk_pw70_joint_tilt,
  panda_joint_1, panda_joint_2, panda_joint_3, panda_joint_4, panda_joint_5, panda_joint_6,
  panda_joint_7]
position: [0.0, 0.0, 0.0, 0.0, 0.0, 0.24285890349040923, -0.23226184886863452, 0.06499671572609984, -0.41475813199716177, -0.18078626972922723, 0.6255481913660695, -1.7585265825059913]
velocity: [0.0, 0.0, 0.0, 0.0, 0.0, -0.00036464625715638374, 1.0912312537904706e-06, 1.025900265687978e-05, 1.0648324717999753e-05, 0.00035249899516989454, 7.165885821517747e-06, -6.208801011572458e-05]
effort: []
---
header: 
  seq: 49
  stamp: 
    secs: 85
    nsecs: 116000000
  frame_id: ''
name: [panda_joint_x, panda_joint_y, panda_joint_theta, schunk_pw70_joint_pan, schunk_pw70_joint_tilt,
  panda_joint_1, panda_joint_2, panda_joint_3, panda_joint_4, panda_joint_5, panda_joint_6,
  panda_joint_7]
position: [0.0, 0.0, 0.0, 0.0, 0.0, 0.24249746178070591, -0.2322607817284962, 0.06500687483819291, -0.4147475997380312, -0.18043685820616434, 0.6255552813799748, -1.758588125648825]
velocity: [0.0, 0.0, 0.0, 0.0, 0.0, -0.00036144170970331423, 1.0671401383000881e-06, 1.0159112093071133e-05, 1.0532259130579016e-05, 0.00034941152306288244, 7.090013905254275e-06, -6.154314283364133e-05]
effort: []
---
header: 
  seq: 50
  stamp: 
    secs: 86
    nsecs: 116000000
  frame_id: ''
name: [panda_joint_x, panda_joint_y, panda_joint_theta, schunk_pw70_joint_pan, schunk_pw70_joint_tilt,
  panda_joint_1, panda_joint_2, panda_joint_3, panda_joint_4, panda_joint_5, panda_joint_6,
  panda_joint_7]
position: [0.0, 0.0, 0.0, 0.0, 0.0, 0.24213919667572323, -0.23225973820711598, 0.06501693509697756, -0.4147371821242376, -0.18009050741136182, 0.625562296404681, -1.7586491286660142]
velocity: [0.0, 0.0, 0.0, 0.0, 0.0, -0.00035826510498268674, 1.0435213802298224e-06, 1.006025878465822e-05, 1.0417613793597251e-05, 0.0003463507948025315, 7.015024706121882e-06, -6.100301718935709e-05]
effort: []
---
header: 
  seq: 51
  stamp: 
    secs: 87
    nsecs: 116000000
  frame_id: ''
name: [panda_joint_x, panda_joint_y, panda_joint_theta, schunk_pw70_joint_pan, schunk_pw70_joint_tilt,
  panda_joint_1, panda_joint_2, panda_joint_3, panda_joint_4, panda_joint_5, panda_joint_6,
  panda_joint_7]
position: [0.0, 0.0, 0.0, 0.0, 0.0, 0.24178408047164118, -0.23225871784088317, 0.06502689752806856, -0.41472687775500655, -0.1797471908266177, 0.625569237311492, -1.7587095962587198]
velocity: [0.0, 0.0, 0.0, 0.0, 0.0, -0.0003551162040820372, 1.0203662328038272e-06, 9.962431090997879e-06, 1.0304369231070826e-05, 0.00034331658474412116, 6.940906811050846e-06, -6.046759270571735e-05]
effort: []
---
header: 
  seq: 52
  stamp: 
    secs: 88
    nsecs: 116000000
  frame_id: ''
name: [panda_joint_x, panda_joint_y, panda_joint_theta, schunk_pw70_joint_pan, schunk_pw70_joint_tilt,
  panda_joint_1, panda_joint_2, panda_joint_3, panda_joint_4, panda_joint_5, panda_joint_6,
  panda_joint_7]
position: [0.0, 0.0, 0.0, 0.0, 0.0, 0.24143208570164987, -0.23225772017506985, 0.06503676314549157, -0.41471668524928135, -0.17940688215754366, 0.6255761049606996, -1.7587695330879227]
velocity: [0.0, 0.0, 0.0, 0.0, 0.0, -0.00035199476999132407, 9.976658133279015e-07, 9.865617423013272e-06, 1.0192505725193051e-05, 0.00034030866907404014, 6.8676492075445545e-06, -5.9936829202996804e-05]
effort: []
---
header: 
  seq: 53
  stamp: 
    secs: 89
    nsecs: 116000000
  frame_id: ''
name: [panda_joint_x, panda_joint_y, panda_joint_theta, schunk_pw70_joint_pan, schunk_pw70_joint_tilt,
  panda_joint_1, panda_joint_2, panda_joint_3, panda_joint_4, panda_joint_5, panda_joint_6,
  panda_joint_7]
position: [0.0, 0.0, 0.0, 0.0, 0.0, 0.24108318513399588, -0.23225674476336458, 0.06504653295191502, -0.4147066032448689, -0.17906955533186084, 0.6255829002014889, -1.7588289437747864]
velocity: [0.0, 0.0, 0.0, 0.0, 0.0, -0.00034890056765399745, 9.754117052582366e-07, 9.769806423444812e-06, 1.0082004412447481e-05, 0.00033732682568283096, 6.795240789242757e-06, -5.941068686360587e-05]
effort: []
---
header: 
  seq: 54
  stamp: 
    secs: 90
    nsecs: 117000000
  frame_id: ''
name: [panda_joint_x, panda_joint_y, panda_joint_theta, schunk_pw70_joint_pan, schunk_pw70_joint_tilt,
  panda_joint_1, panda_joint_2, panda_joint_3, panda_joint_4, panda_joint_5, panda_joint_6,
  panda_joint_7]
position: [0.0, 0.0, 0.0, 0.0, 0.0, 0.24073735177010291, -0.23225579116798303, 0.06505620793870702, -0.4146966303986329, -0.17873518449759537, 0.6255896238723083, -1.7588878329009505]
velocity: [0.0, 0.0, 0.0, 0.0, 0.0, -0.0003458333638929663, 9.535953815495738e-07, 9.674986791994013e-06, 9.972846236004e-06, 0.00033437083426545377, 6.723670819494654e-06, -5.888912616406637e-05]
effort: []
---
header: 
  seq: 55
  stamp: 
    secs: 91
    nsecs: 117000000
  frame_id: ''
name: [panda_joint_x, panda_joint_y, panda_joint_theta, schunk_pw70_joint_pan, schunk_pw70_joint_tilt,
  panda_joint_1, panda_joint_2, panda_joint_3, panda_joint_4, panda_joint_5, panda_joint_6,
  panda_joint_7]
position: [0.0, 0.0, 0.0, 0.0, 0.0, 0.2403945588426528, -0.2322548589592925, 0.06506578908613846, -0.4146867653858039, -0.17840374402138048, 0.6255962768008402, -1.7589462050088802]
velocity: [0.0, 0.0, 0.0, 0.0, 0.0, -0.0003427929274501266, 9.32208690541891e-07, 9.581147431440595e-06, 9.86501282902049e-06, 0.0003314404762149014, 6.6529285319087305e-06, -5.837210792962349e-05]
effort: []
---
header: 
  seq: 56
  stamp: 
    secs: 92
    nsecs: 116000000
  frame_id: ''
name: [panda_joint_x, panda_joint_y, panda_joint_theta, schunk_pw70_joint_pan, schunk_pw70_joint_tilt,
  panda_joint_1, panda_joint_2, panda_joint_3, panda_joint_4, panda_joint_5, panda_joint_6,
  panda_joint_7]
position: [0.0, 0.0, 0.0, 0.0, 0.0, 0.24005477981372125, -0.23225394771582764, 0.06507527736346663, -0.4146770068999995, -0.17807520848669323, 0.6256028598042837, -1.7590040646021667]
velocity: [0.0, 0.0, 0.0, 0.0, 0.0, -0.00033977902893154093, 9.112434648440715e-07, 9.488277328174832e-06, 9.758485804421124e-06, 0.00032853553468725814, 6.583003443508665e-06, -5.785959328651916e-05]
effort: []
---
header: 
  seq: 57
  stamp: 
    secs: 93
    nsecs: 116000000
  frame_id: ''
name: [panda_joint_x, panda_joint_y, panda_joint_theta, schunk_pw70_joint_pan, schunk_pw70_joint_tilt,
  panda_joint_1, panda_joint_2, panda_joint_3, panda_joint_4, panda_joint_5, panda_joint_6,
  panda_joint_7]
position: [0.0, 0.0, 0.0, 0.0, 0.0, 0.23971798837289382, -0.23225305702401033, 0.06508467372910888, -0.41466735365270696, -0.17774955269216164, 0.6256093736893951, -1.7590614161458629]
velocity: [0.0, 0.0, 0.0, 0.0, 0.0, -0.00033679144082742976, 8.906918173008034e-07, 9.396365642253435e-06, 9.653247292512845e-06, 0.0003256557945315868, 6.513885111453798e-06, -5.735154369617631e-05]
effort: []
---
header: 
  seq: 58
  stamp: 
    secs: 94
    nsecs: 116000000
  frame_id: ''
name: [panda_joint_x, panda_joint_y, panda_joint_theta, schunk_pw70_joint_pan, schunk_pw70_joint_tilt,
  panda_joint_1, panda_joint_2, panda_joint_3, panda_joint_4, panda_joint_5, panda_joint_6,
  panda_joint_7]
position: [0.0, 0.0, 0.0, 0.0, 0.0, 0.2393841584354256, -0.2322521864781462, 0.06509397913072926, -0.41465780437326827, -0.17742675164982785, 0.6256158192527462, -1.7591182640667797]
velocity: [0.0, 0.0, 0.0, 0.0, 0.0, -0.00033382993746821575, 8.705458641414486e-07, 9.30540162038129e-06, 9.549279438676359e-06, 0.0003228010423338004, 6.445563351176868e-06, -5.684792091686681e-05]
effort: []
---
header: 
  seq: 59
  stamp: 
    secs: 95
    nsecs: 116000000
  frame_id: ''
name: [panda_joint_x, panda_joint_y, panda_joint_theta, schunk_pw70_joint_pan, schunk_pw70_joint_tilt,
  panda_joint_1, panda_joint_2, panda_joint_3, panda_joint_4, panda_joint_5, panda_joint_6,
  panda_joint_7]
position: [0.0, 0.0, 0.0, 0.0, 0.0, 0.23905326414037195, -0.23225133568005463, 0.06510319450543808, -0.4146483578081975, -0.17710678058349513, 0.625622197280682, -1.759174612753827]
velocity: [0.0, 0.0, 0.0, 0.0, 0.0, -0.0003308942950536578, 8.507980915506982e-07, 9.215374708823561e-06, 9.446565070818735e-06, 0.000319971066332728, 6.378027935819164e-06, -5.6348687047299034e-05]
effort: []
---
header: 
  seq: 60
  stamp: 
    secs: 96
    nsecs: 117000000
  frame_id: ''
name: [panda_joint_x, panda_joint_y, panda_joint_theta, schunk_pw70_joint_pan, schunk_pw70_joint_tilt,
  panda_joint_1, panda_joint_2, panda_joint_3, panda_joint_4, panda_joint_5, panda_joint_6,
  panda_joint_7]
position: [0.0, 0.0, 0.0, 0.0, 0.0, 0.23872527984878528, -0.23225050423917853, 0.0651123207798426, -0.41463901272137216, -0.17678961492699233, 0.6256285085496647, -1.7592304665582985]
velocity: [0.0, 0.0, 0.0, 0.0, 0.0, -0.00032798429158666277, 8.314408760929028e-07, 9.126274404511416e-06, 9.34508682529626e-06, 0.0003171656565028049, 6.311268982653826e-06, -5.585380447149172e-05]
effort: []
---
header: 
  seq: 61
  stamp: 
    secs: 97
    nsecs: 116000000
  frame_id: ''
name: [panda_joint_x, panda_joint_y, panda_joint_theta, schunk_pw70_joint_pan, schunk_pw70_joint_tilt,
  panda_joint_1, panda_joint_2, panda_joint_3, panda_joint_4, panda_joint_5, panda_joint_6,
  panda_joint_7]
position: [0.0, 0.0, 0.0, 0.0, 0.0, 0.2384001801418808, -0.23224969177229832, 0.06512135887021918, -0.4146297678935031, -0.17647523032252785, 0.6256347538262901, -1.7592858297941945]
velocity: [0.0, 0.0, 0.0, 0.0, 0.0, -0.00032509970690447693, 8.124668802173206e-07, 9.038090376587533e-06, 9.244827869088452e-06, 0.00031438460446447047, 6.2452766253742695e-06, -5.536323589600664e-05]
effort: []
---
header: 
  seq: 62
  stamp: 
    secs: 98
    nsecs: 116000000
  frame_id: ''
name: [panda_joint_x, panda_joint_y, panda_joint_theta, schunk_pw70_joint_pan, schunk_pw70_joint_tilt,
  panda_joint_1, panda_joint_2, panda_joint_3, panda_joint_4, panda_joint_5, panda_joint_6,
  panda_joint_7]
position: [0.0, 0.0, 0.0, 0.0, 0.0, 0.23807793981922754, -0.2322488979033662, 0.06513030968264676, -0.41462062212182166, -0.17616360261903038, 0.625640933867398, -1.759340706738534]
velocity: [0.0, 0.0, 0.0, 0.0, 0.0, -0.00032224032265327617, 7.938689321070698e-07, 8.950812427581964e-06, 9.14577168140895e-06, 0.00031162770349747076, 6.180041107992943e-06, -5.4876944339580594e-05]
effort: []
---
header: 
  seq: 63
  stamp: 
    secs: 99
    nsecs: 117000000
  frame_id: ''
name: [panda_joint_x, panda_joint_y, panda_joint_theta, schunk_pw70_joint_pan, schunk_pw70_joint_tilt,
  panda_joint_1, panda_joint_2, panda_joint_3, panda_joint_4, panda_joint_5, panda_joint_6,
  panda_joint_7]
position: [0.0, 0.0, 0.0, 0.0, 0.0, 0.23775853389696994, -0.2322481222635049, 0.06513917411308993, -0.4146115742200703, -0.17585470787047, 0.6256470494203166, -1.7593951016316456]
velocity: [0.0, 0.0, 0.0, 0.0, 0.0, -0.0003194059222575953, 7.756398612805985e-07, 8.864430443182828e-06, 9.047901751366173e-06, 0.00030889474856038494, 6.115552918506708e-06, -5.439489311145291e-05]
effort: []
---
header: 
  seq: 64
  stamp: 
    secs: 100
    nsecs: 116000000
  frame_id: ''
name: [panda_joint_x, panda_joint_y, panda_joint_theta, schunk_pw70_joint_pan, schunk_pw70_joint_tilt,
  panda_joint_1, panda_joint_2, panda_joint_3, panda_joint_4, panda_joint_5, panda_joint_6,
  panda_joint_7]
position: [0.0, 0.0, 0.0, 0.0, 0.0, 0.2374419376060369, -0.23224736449076902, 0.06514795304755273, -0.41460262301805595, -0.17554852233423582, 0.6256531012229029, -1.7594490186774783]
velocity: [0.0, 0.0, 0.0, 0.0, 0.0, -0.00031659629093303, 7.577727358953859e-07, 8.778934462804592e-06, 8.951202014322982e-06, 0.00030618553623419566, 6.051802586251245e-06, -5.391704583263616e-05]
effort: []
---
header: 
  seq: 65
  stamp: 
    secs: 101
    nsecs: 116000000
  frame_id: ''
name: [panda_joint_x, panda_joint_y, panda_joint_theta, schunk_pw70_joint_pan, schunk_pw70_joint_tilt,
  panda_joint_1, panda_joint_2, panda_joint_3, panda_joint_4, panda_joint_5, panda_joint_6,
  panda_joint_7]
position: [0.0, 0.0, 0.0, 0.0, 0.0, 0.2371281263903745, -0.2322466242300305, 0.06515664736219698, -0.41459376736142994, -0.17524502246950308, 0.6256590900036836, -1.7595024620439044]
velocity: [0.0, 0.0, 0.0, 0.0, 0.0, -0.00031381121566240205, 7.402607385169272e-07, 8.694314644247568e-06, 8.855656626015583e-06, 0.00030349986473275533, 5.9887807807830814e-06, -5.344336642614159e-05]
effort: []
---
header: 
  seq: 66
  stamp: 
    secs: 102
    nsecs: 116000000
  frame_id: ''
name: [panda_joint_x, panda_joint_y, panda_joint_theta, schunk_pw70_joint_pan, schunk_pw70_joint_tilt,
  panda_joint_1, panda_joint_2, panda_joint_3, panda_joint_4, panda_joint_5, panda_joint_6,
  panda_joint_7]
position: [0.0, 0.0, 0.0, 0.0, 0.0, 0.23681707590520065, -0.2322459011329221, 0.06516525792343578, -0.41458500611157695, -0.1749441849355969, 0.6256650164820432, -1.7595554358630072]
velocity: [0.0, 0.0, 0.0, 0.0, 0.0, -0.0003110504851738396, 7.230971084156269e-07, 8.610561238794563e-06, 8.761249852996097e-06, 0.0003008375339061651, 5.926478359601071e-06, -5.297381910295333e-05]
effort: []
---
header: 
  seq: 67
  stamp: 
    secs: 103
    nsecs: 116000000
  frame_id: ''
name: [panda_joint_x, panda_joint_y, panda_joint_theta, schunk_pw70_joint_pan, schunk_pw70_joint_tilt,
  panda_joint_1, panda_joint_2, panda_joint_3, panda_joint_4, panda_joint_5, panda_joint_6,
  panda_joint_7]
position: [0.0, 0.0, 0.0, 0.0, 0.0, 0.23650876201524798, -0.23224519485758874, 0.06517378558809159, -0.41457633814514977, -0.1746459865904079, 0.6256708813682452, -1.7596079442313903]
velocity: [0.0, 0.0, 0.0, 0.0, 0.0, -0.0003083138899526798, 7.062753333569449e-07, 8.527664655812115e-06, 8.667966427153917e-06, 0.00029819834518901236, 5.86488620198683e-06, -5.250836838302336e-05]
effort: []
---
header: 
  seq: 68
  stamp: 
    secs: 104
    nsecs: 116000000
  frame_id: ''
name: [panda_joint_x, panda_joint_y, panda_joint_theta, schunk_pw70_joint_pan, schunk_pw70_joint_tilt,
  panda_joint_1, panda_joint_2, panda_joint_3, panda_joint_4, panda_joint_5, panda_joint_6,
  panda_joint_7]
position: [0.0, 0.0, 0.0, 0.0, 0.0, 0.23620316079304263, -0.2322445050686469, 0.06518223120348736, -0.4145677623539833, -0.17435040448877737, 0.6256766853636224, -1.759659991210465]
velocity: [0.0, 0.0, 0.0, 0.0, 0.0, -0.0003056012222053428, 6.897889418128933e-07, 8.445615395769662e-06, 8.57579116645941e-06, 0.0002955821016305315, 5.80399537715907e-06, -5.2046979074585047e-05]
effort: []
---
header: 
  seq: 69
  stamp: 
    secs: 105
    nsecs: 116000000
  frame_id: ''
name: [panda_joint_x, panda_joint_y, panda_joint_theta, schunk_pw70_joint_pan, schunk_pw70_joint_tilt,
  panda_joint_1, panda_joint_2, panda_joint_3, panda_joint_4, panda_joint_5, panda_joint_6,
  panda_joint_7]
position: [0.0, 0.0, 0.0, 0.0, 0.0, 0.23590024851719538, -0.23224383143712385, 0.06519059560753998, -0.4145592776449748, -0.17405741588089668, 0.6256824291607497, -1.759711580826732]
velocity: [0.0, 0.0, 0.0, 0.0, 0.0, -0.00030291227584725787, 6.736315230668615e-07, 8.36440405262503e-06, 8.48470900847919e-06, 0.0002929886078806863, 5.743797127211466e-06, -5.158961626715164e-05]
effort: []
---
header: 
  seq: 70
  stamp: 
    secs: 106
    nsecs: 116000000
  frame_id: ''
name: [panda_joint_x, panda_joint_y, panda_joint_theta, schunk_pw70_joint_pan, schunk_pw70_joint_tilt,
  panda_joint_1, panda_joint_2, panda_joint_3, panda_joint_4, panda_joint_5, panda_joint_6,
  panda_joint_7]
position: [0.0, 0.0, 0.0, 0.0, 0.0, 0.23560000167067677, -0.2322431736401742, 0.06519887962892794, -0.41455088293955267, -0.17376699821076388, 0.6256881134434248, -1.7597627170720906]
velocity: [0.0, 0.0, 0.0, 0.0, 0.0, -0.0003002468465186135, 6.577969496690616e-07, 8.284021387955565e-06, 8.39470542212829e-06, 0.00029041767013279144, 5.684282675137861e-06, -5.1136245358598727e-05]
effort: []
---
header: 
  seq: 71
  stamp: 
    secs: 107
    nsecs: 117000000
  frame_id: ''
name: [panda_joint_x, panda_joint_y, panda_joint_theta, schunk_pw70_joint_pan, schunk_pw70_joint_tilt,
  panda_joint_1, panda_joint_2, panda_joint_3, panda_joint_4, panda_joint_5, panda_joint_6,
  panda_joint_7]
position: [0.0, 0.0, 0.0, 0.0, 0.0, 0.2353023969391417, -0.23224253136110798, 0.06520708408715536, -0.4145425771737185, -0.1734791291145878, 0.625693738886908, -1.7598134039041107]
velocity: [0.0, 0.0, 0.0, 0.0, 0.0, -0.00029760473153504877, 6.422790662139888e-07, 8.204458227428559e-06, 8.305765834181567e-06, 0.0002878690961760897, 5.625443483228187e-06, -5.068683202007228e-05]
effort: []
---
header: 
  seq: 72
  stamp: 
    secs: 108
    nsecs: 116000000
  frame_id: ''
name: [panda_joint_x, panda_joint_y, panda_joint_theta, schunk_pw70_joint_pan, schunk_pw70_joint_tilt,
  panda_joint_1, panda_joint_2, panda_joint_3, panda_joint_4, panda_joint_5, panda_joint_6,
  panda_joint_7]
position: [0.0, 0.0, 0.0, 0.0, 0.0, 0.23500741120924104, -0.23224190428920086, 0.06521520979268634, -0.4145343592976891, -0.1731937864192471, 0.6256993061579756, -1.759863645246323]
velocity: [0.0, 0.0, 0.0, 0.0, 0.0, -0.0002949857299006776, 6.270719071289568e-07, 8.125705530973541e-06, 8.217876029414626e-06, 0.00028534269534070093, 5.567271067645997e-06, -5.024134221231722e-05]
effort: []
---
header: 
  seq: 73
  stamp: 
    secs: 109
    nsecs: 116000000
  frame_id: ''
name: [panda_joint_x, panda_joint_y, panda_joint_theta, schunk_pw70_joint_pan, schunk_pw70_joint_tilt,
  panda_joint_1, panda_joint_2, panda_joint_3, panda_joint_4, panda_joint_5, panda_joint_6,
  panda_joint_7]
position: [0.0, 0.0, 0.0, 0.0, 0.0, 0.23471502156695642, -0.2322412921196148, 0.06522325754704557, -0.4145262282757369, -0.1729109481407404, 0.6257048159150588, -1.7599134449885019]
velocity: [0.0, 0.0, 0.0, 0.0, 0.0, -0.00029238964228460565, 6.121695860629201e-07, 8.047754359226548e-06, 8.131021952265049e-06, 0.0002828382785066879, 5.509757083173589e-06, -4.979974217878311e-05]
effort: []
---
header: 
  seq: 74
  stamp: 
    secs: 110
    nsecs: 116000000
  frame_id: ''
name: [panda_joint_x, panda_joint_y, panda_joint_theta, schunk_pw70_joint_pan, schunk_pw70_joint_tilt,
  panda_joint_1, panda_joint_2, panda_joint_3, panda_joint_4, panda_joint_5, panda_joint_6,
  panda_joint_7]
position: [0.0, 0.0, 0.0, 0.0, 0.0, 0.23442520529594715, -0.2322406945532967, 0.06523122814292065, -0.4145181830859961, -0.17263059248264928, 0.6257102688083668, -1.7599628069869429]
velocity: [0.0, 0.0, 0.0, 0.0, 0.0, -0.0002898162710092714, 5.975663180931773e-07, 7.970595875085605e-06, 8.045189740801824e-06, 0.0002803556580911278, 5.452893308051439e-06, -4.9361998441057436e-05]
effort: []
---
header: 
  seq: 75
  stamp: 
    secs: 111
    nsecs: 116000000
  frame_id: ''
name: [panda_joint_x, panda_joint_y, panda_joint_theta, schunk_pw70_joint_pan, schunk_pw70_joint_tilt,
  panda_joint_1, panda_joint_2, panda_joint_3, panda_joint_4, panda_joint_5, panda_joint_6,
  panda_joint_7]
position: [0.0, 0.0, 0.0, 0.0, 0.0, 0.23413793987590756, -0.23224011129688416, 0.06523912236426685, -0.41451022272027616, -0.17235269783461377, 0.625715665480007, -1.7600117350647428]
velocity: [0.0, 0.0, 0.0, 0.0, 0.0, -0.000287265420039597, 5.832564125494984e-07, 7.894221346198314e-06, 7.960365719954568e-06, 0.0002778946480355012, 5.396671640262012e-06, -4.892807780008475e-05]
effort: []
---
header: 
  seq: 76
  stamp: 
    secs: 112
    nsecs: 118000000
  frame_id: ''
name: [panda_joint_x, panda_joint_y, panda_joint_theta, schunk_pw70_joint_pan, schunk_pw70_joint_tilt,
  panda_joint_1, panda_joint_2, panda_joint_3, panda_joint_4, panda_joint_5, panda_joint_6,
  panda_joint_7]
position: [0.0, 0.0, 0.0, 0.0, 0.0, 0.2338532029809213, -0.2322395420624585, 0.06524694098645126, -0.4145023461836004, -0.17207724277084407, 0.6257210065639816, -1.760060233012086]
velocity: [0.0, 0.0, 0.0, 0.0, 0.0, -0.000284736894986268, 5.692344256428e-07, 7.818622184402354e-06, 7.876536675782872e-06, 0.0002754550637696943, 5.34108397456199e-06, -4.8497947343152194e-05]
effort: []
---
header: 
  seq: 77
  stamp: 
    secs: 113
    nsecs: 116000000
  frame_id: ''
name: [panda_joint_x, panda_joint_y, panda_joint_theta, schunk_pw70_joint_pan, schunk_pw70_joint_tilt,
  panda_joint_1, panda_joint_2, panda_joint_3, panda_joint_4, panda_joint_5, panda_joint_6,
  panda_joint_7]
position: [0.0, 0.0, 0.0, 0.0, 0.0, 0.23357097247786957, -0.23223898656770048, 0.06525468477628137, -0.41449455249447476, -0.17180420604857133, 0.6257262926865054, -1.7601083045864963]
velocity: [0.0, 0.0, 0.0, 0.0, 0.0, -0.00028223050305174583, 5.55494758029163e-07, 7.743789830106725e-06, 7.793689125646754e-06, 0.0002730367222727478, 5.286122523832874e-06, -4.807157441013428e-05]
effort: []
---
header: 
  seq: 78
  stamp: 
    secs: 114
    nsecs: 116000000
  frame_id: ''
name: [panda_joint_x, panda_joint_y, panda_joint_theta, schunk_pw70_joint_pan, schunk_pw70_joint_tilt,
  panda_joint_1, panda_joint_2, panda_joint_3, panda_joint_4, panda_joint_5, panda_joint_6,
  panda_joint_7]
position: [0.0, 0.0, 0.0, 0.0, 0.0, 0.2332912264247983, -0.23223844453553877, 0.06526235449217997, -0.41448684068423586, -0.1715335666066022, 0.6257315244659106, -1.7601559535131324]
velocity: [0.0, 0.0, 0.0, 0.0, 0.0, -0.0002797460530712538, 5.420321617058574e-07, 7.669715898602534e-06, 7.711810238910368e-06, 0.0002706394419691231, 5.231779405249187e-06, -4.764892663614087e-05]
effort: []
---
header: 
  seq: 79
  stamp: 
    secs: 115
    nsecs: 116000000
  frame_id: ''
name: [panda_joint_x, panda_joint_y, panda_joint_theta, schunk_pw70_joint_pan, schunk_pw70_joint_tilt,
  panda_joint_1, panda_joint_2, panda_joint_3, panda_joint_4, panda_joint_5, panda_joint_6,
  panda_joint_7]
position: [0.0, 0.0, 0.0, 0.0, 0.0, 0.2330139430693372, -0.23223791569418287, 0.06526995088424674, -0.41447920979709724, -0.1712653035638127, 0.6257367025128607, -1.760203183485047]
velocity: [0.0, 0.0, 0.0, 0.0, 0.0, -0.00027728335546108713, 5.288413559079496e-07, 7.596392066766048e-06, 7.630887138614692e-06, 0.00026826304278950087, 5.178046950107488e-06, -4.7229971914458465e-05]
effort: []
---
header: 
  seq: 80
  stamp: 
    secs: 116
    nsecs: 116000000
  frame_id: ''
name: [panda_joint_x, panda_joint_y, panda_joint_theta, schunk_pw70_joint_pan, schunk_pw70_joint_tilt,
  panda_joint_1, panda_joint_2, panda_joint_3, panda_joint_4, panda_joint_5, panda_joint_6,
  panda_joint_7]
position: [0.0, 0.0, 0.0, 0.0, 0.0, 0.23273910084711552, -0.23223739977701346, 0.06527747469436132, -0.4144716588899351, -0.1709993962176799, 0.6257418274304433, -1.7602499981634516]
velocity: [0.0, 0.0, 0.0, 0.0, 0.0, -0.0002748422222216861, 5.159171693971254e-07, 7.5238101145824545e-06, 7.550907162145206e-06, 0.0002659073461327899, 5.124917582549448e-06, -4.681467840481039e-05]
effort: []
---
header: 
  seq: 81
  stamp: 
    secs: 117
    nsecs: 116000000
  frame_id: ''
name: [panda_joint_x, panda_joint_y, panda_joint_theta, schunk_pw70_joint_pan, schunk_pw70_joint_tilt,
  panda_joint_1, panda_joint_2, panda_joint_3, panda_joint_4, panda_joint_5, panda_joint_6,
  panda_joint_7]
position: [0.0, 0.0, 0.0, 0.0, 0.0, 0.23246667838018958, -0.2322368965224639, 0.06528492665628724, -0.41446418703205995, -0.1707358240428258, 0.6257468998142559, -1.7602964011779896]
velocity: [0.0, 0.0, 0.0, 0.0, 0.0, -0.0002724224669259268, 5.032545495472127e-07, 7.451961925917574e-06, 7.471857875137126e-06, 0.00026357217485408727, 5.072383812665436e-06, -4.640301453797707e-05]
effort: []
---
header: 
  seq: 82
  stamp: 
    secs: 118
    nsecs: 116000000
  frame_id: ''
name: [panda_joint_x, panda_joint_y, panda_joint_theta, schunk_pw70_joint_pan, schunk_pw70_joint_tilt,
  panda_joint_1, panda_joint_2, panda_joint_3, panda_joint_4, panda_joint_5, panda_joint_6,
  panda_joint_7]
position: [0.0, 0.0, 0.0, 0.0, 0.0, 0.23219665447548182, -0.23223640567392106, 0.06529230749577249, -0.41445679330502044, -0.17047456668956987, 0.6257519202525017, -1.7603423961269988]
velocity: [0.0, 0.0, 0.0, 0.0, 0.0, -0.00027002390470775493, 4.908485428399094e-07, 7.3808394852422875e-06, 7.3937270395161865e-06, 0.00026125735325593723, 5.020438245822028e-06, -4.5994949009262146e-05]
effort: []
---
header: 
  seq: 83
  stamp: 
    secs: 119
    nsecs: 116000000
  frame_id: ''
name: [panda_joint_x, panda_joint_y, panda_joint_theta, schunk_pw70_joint_pan, schunk_pw70_joint_tilt,
  panda_joint_1, panda_joint_2, panda_joint_3, panda_joint_4, panda_joint_5, panda_joint_6,
  panda_joint_7]
position: [0.0, 0.0, 0.0, 0.0, 0.0, 0.23192900812323985, -0.23223592697967796, 0.06529961793062936, -0.4144494768025047, -0.17021560398247973, 0.6257568893261274, -1.7603879865777687]
velocity: [0.0, 0.0, 0.0, 0.0, 0.0, -0.0002676463522419706, 4.786942430924803e-07, 7.31043485687261e-06, 7.316502515757463e-06, 0.00025896270709012886, 4.969073625724478e-06, -4.5590450769865284e-05]
effort: []
---
header: 
  seq: 84
  stamp: 
    secs: 120
    nsecs: 116000000
  frame_id: ''
name: [panda_joint_x, panda_joint_y, panda_joint_theta, schunk_pw70_joint_pan, schunk_pw70_joint_tilt,
  panda_joint_1, panda_joint_2, panda_joint_3, panda_joint_4, panda_joint_5, panda_joint_6,
  panda_joint_7]
position: [0.0, 0.0, 0.0, 0.0, 0.0, 0.23166371849549475, -0.2322354601927889, 0.06530685867084522, -0.4144422366300623, -0.16995891591895285, 0.6257618076088773, -1.7604331760668044]
velocity: [0.0, 0.0, 0.0, 0.0, 0.0, -0.00026528962774512095, 4.6678688906811606e-07, 7.24074021586307e-06, 7.2401724424229756e-06, 0.00025668806352688436, 4.9182827499725615e-06, -4.518948903567452e-05]
effort: []
---
header: 
  seq: 85
  stamp: 
    secs: 121
    nsecs: 116000000
  frame_id: ''
name: [panda_joint_x, panda_joint_y, panda_joint_theta, schunk_pw70_joint_pan, schunk_pw70_joint_tilt,
  panda_joint_1, panda_joint_2, panda_joint_3, panda_joint_4, panda_joint_5, panda_joint_6,
  panda_joint_7]
position: [0.0, 0.0, 0.0, 0.0, 0.0, 0.2314007649445331, -0.23223500507095504, 0.06531403041868648, -0.4144350719048783, -0.1697044826678038, 0.6257666756673661, -1.7604779681000895]
velocity: [0.0, 0.0, 0.0, 0.0, 0.0, -0.00026295355096165495, 4.5512183385584674e-07, 7.171747841254812e-06, 7.164725183960339e-06, 0.00025443325114905065, 4.868058488746211e-06, -4.4792033285046195e-05]
effort: []
---
header: 
  seq: 86
  stamp: 
    secs: 122
    nsecs: 116000000
  frame_id: ''
name: [panda_joint_x, panda_joint_y, panda_joint_theta, schunk_pw70_joint_pan, schunk_pw70_joint_tilt,
  panda_joint_1, panda_joint_2, panda_joint_3, panda_joint_4, panda_joint_5, panda_joint_6,
  panda_joint_7]
position: [0.0, 0.0, 0.0, 0.0, 0.0, 0.23114012700139644, -0.23223456137652973, 0.06532113386875851, -0.41442798175577367, -0.16945228456783681, 0.6257714940612558, -1.760522366153333]
velocity: [0.0, 0.0, 0.0, 0.0, 0.0, -0.0002606379431366551, 4.4369442530350004e-07, 7.10345007202695e-06, 7.090149104652896e-06, 0.0002521980999669792, 4.818393889630891e-06, -4.439805324343755e-05]
effort: []
---
header: 
  seq: 87
  stamp: 
